{"type":"Feature","properties":{"stationName":	PONT DE LEVALLOIS-BÃ‰CON	"},"geometry":{	{"type": "Point", "coordinates": [-1.361805959595469, -5.981225383492586]}	},
{"type":"Feature","properties":{"stationName":	GABRIEL PÃ‰RI	"},"geometry":{	{"type": "Point", "coordinates": [-1.361674878039542, -5.98090667691037]}	},
{"type":"Feature","properties":{"stationName":	VILLEJUIF PAUL VAILLANT-COUTURIER	"},"geometry":{	{"type": "Point", "coordinates": [-1.360748619427535, -5.982548554535288]}	},
{"type":"Feature","properties":{"stationName":	ANATOLE FRANCE	"},"geometry":{	{"type": "Point", "coordinates": [-1.361751451616092, -5.98127424657041]}	},
{"type":"Feature","properties":{"stationName":	HOCHE	"},"geometry":{	{"type": "Point", "coordinates": [-1.360369540366785, -5.981256184701731]}	},
{"type":"Feature","properties":{"stationName":	PORTE DE CLIGNACOURT	"},"geometry":{	{"type": "Point", "coordinates": [-1.361110963897279, -5.981177670444038]}	},
{"type":"Feature","properties":{"stationName":	MALAKOFF-RUE ETIENNE DOLET	"},"geometry":{	{"type": "Point", "coordinates": [-1.361091865198532, -5.982454679230115]}	},
{"type":"Feature","properties":{"stationName":	MAIRIE D'ISSY	"},"geometry":{	{"type": "Point", "coordinates": [-1.361270645751396, -5.982436399745493]}	},
{"type":"Feature","properties":{"stationName":	CARREFOUR PLEYEL	"},"geometry":{	{"type": "Point", "coordinates": [-1.361083500720731, -5.98095348818784]}	},
{"type":"Feature","properties":{"stationName":	PRÃ‰-SAINT-GERVAIS	"},"geometry":{	{"type": "Point", "coordinates": [-1.360514214092644, -5.981366994426351]}	},
{"type":"Feature","properties":{"stationName":	CHARENTON-ECOLES	"},"geometry":{	{"type": "Point", "coordinates": [-1.360276197192595, -5.982222874903703]}	},
{"type":"Feature","properties":{"stationName":	CRÃ‰TEIL-PRÃ‰FECTURE	"},"geometry":{	{"type": "Point", "coordinates": [-1.360171446080192, -5.98268634465285]}	},
{"type":"Feature","properties":{"stationName":	BALARD	"},"geometry":{	{"type": "Point", "coordinates": [-1.361352191174686, -5.982275601611405]}	},
{"type":"Feature","properties":{"stationName":	PORTE DES LILAS	"},"geometry":{	{"type": "Point", "coordinates": [-1.360492500862257, -5.981397726911088]}	},
{"type":"Feature","properties":{"stationName":	MICHEL BIZOT	"},"geometry":{	{"type": "Point", "coordinates": [-1.360474981943621, -5.981969518524997]}	},
{"type":"Feature","properties":{"stationName":	PORTE DE CHARENTON	"},"geometry":{	{"type": "Point", "coordinates": [-1.360453735458851, -5.982041027503783]}	},
{"type":"Feature","properties":{"stationName":	MICHEL ANGE-MOLITOR	"},"geometry":{	{"type": "Point", "coordinates": [-1.361528712715998, -5.982167092769021]}	},
{"type":"Feature","properties":{"stationName":	LA DÃ‰FENSE-GRANDE ARCHE	"},"geometry":{	{"type": "Point", "coordinates": [-1.361926879838487, -5.981449144477867]}	},
{"type":"Feature","properties":{"stationName":	ESPLANADE DE LA DÃ‰FENSE	"},"geometry":{	{"type": "Point", "coordinates": [-1.361893282669803, -5.981460983891428]}	},
{"type":"Feature","properties":{"stationName":	TROCADÃ‰RO	"},"geometry":{	{"type": "Point", "coordinates": [-1.361418351050156, -5.981862076666983]}	},
{"type":"Feature","properties":{"stationName":	PONT MARIE	"},"geometry":{	{"type": "Point", "coordinates": [-1.36091762879918, -5.981739900062868]}	},
{"type":"Feature","properties":{"stationName":	LES GOBELINS	"},"geometry":{	{"type": "Point", "coordinates": [-1.360824495289768, -5.982067622047134]}	},
{"type":"Feature","properties":{"stationName":	MONTPARNASSE	"},"geometry":{	{"type": "Point", "coordinates": [-1.361131573255093, -5.982132649495744]}	},
{"type":"Feature","properties":{"stationName":	PLACE DE CLICHY	"},"geometry":{	{"type": "Point", "coordinates": [-1.361271138340587, -5.981324568455565]}	},
{"type":"Feature","properties":{"stationName":	STALINGRAD	"},"geometry":{	{"type": "Point", "coordinates": [-1.360771195330746, -5.981321464065589]}	},
{"type":"Feature","properties":{"stationName":	BERCY	"},"geometry":{	{"type": "Point", "coordinates": [-1.360620540092875, -5.981996497593734]}	},
{"type":"Feature","properties":{"stationName":	PLACE D'ITALIE	"},"geometry":{	{"type": "Point", "coordinates": [-1.360772815531951, -5.98212160666443]}	},
{"type":"Feature","properties":{"stationName":	DAUMESNIL	"},"geometry":{	{"type": "Point", "coordinates": [-1.360565337540633, -5.981934633346916]}	},
{"type":"Feature","properties":{"stationName":	LA MOTTE PICQUET-GRENELLE	"},"geometry":{	{"type": "Point", "coordinates": [-1.361275190970818, -5.982034885097159]}	},
{"type":"Feature","properties":{"stationName":	CONCORDE	"},"geometry":{	{"type": "Point", "coordinates": [-1.361206761917682, -5.981717813023416]}	},
{"type":"Feature","properties":{"stationName":	BASILIQUE DE SAINT-DENIS	"},"geometry":{	{"type": "Point", "coordinates": [-1.360763235488711, -5.980766053278015]}	},
{"type":"Feature","properties":{"stationName":	PORTE D'IVRY	"},"geometry":{	{"type": "Point", "coordinates": [-1.360617155262975, -5.982255715032946]}	},
{"type":"Feature","properties":{"stationName":	GAMBETTA	"},"geometry":{	{"type": "Point", "coordinates": [-1.360521656191302, -5.981563543860238]}	},
{"type":"Feature","properties":{"stationName":	GARE DE L'EST	"},"geometry":{	{"type": "Point", "coordinates": [-1.360895985790702, -5.981428444344767]}	},
{"type":"Feature","properties":{"stationName":	SIMPLON	"},"geometry":{	{"type": "Point", "coordinates": [-1.361109927742032, -5.981196162685695]}	},
{"type":"Feature","properties":{"stationName":	LIÃˆGE	"},"geometry":{	{"type": "Point", "coordinates": [-1.361268868799469, -5.981365735218596]}	},
{"type":"Feature","properties":{"stationName":	TRINITÃ‰ D'ESTIENNE D'ORVES	"},"geometry":{	{"type": "Point", "coordinates": [-1.361188783446063, -5.981424173561625]}	},
{"type":"Feature","properties":{"stationName":	NOTRE-DAME DE LORETTE	"},"geometry":{	{"type": "Point", "coordinates": [-1.361177356837372, -5.981380392254152]}	},
{"type":"Feature","properties":{"stationName":	LA CHAPELLE	"},"geometry":{	{"type": "Point", "coordinates": [-1.360956512454256, -5.981307187215831]}	},
{"type":"Feature","properties":{"stationName":	GARE DU NORD	"},"geometry":{	{"type": "Point", "coordinates": [-1.361035890614807, -5.981363893019926]}	},
{"type":"Feature","properties":{"stationName":	RICHELIEU-DROUOT	"},"geometry":{	{"type": "Point", "coordinates": [-1.361094108790952, -5.981539201956926]}	},
{"type":"Feature","properties":{"stationName":	COLONEL FABIEN	"},"geometry":{	{"type": "Point", "coordinates": [-1.360702876597745, -5.981382685919353]}	},
{"type":"Feature","properties":{"stationName":	PYRÃ‰NÃ‰ES	"},"geometry":{	{"type": "Point", "coordinates": [-1.360636568182356, -5.981405962639686]}	},
{"type":"Feature","properties":{"stationName":	RASPAIL	"},"geometry":{	{"type": "Point", "coordinates": [-1.360998928548359, -5.982134097778557]}	},
{"type":"Feature","properties":{"stationName":	CHEMIN VERT	"},"geometry":{	{"type": "Point", "coordinates": [-1.360765442586805, -5.9817288756983]}	},
{"type":"Feature","properties":{"stationName":	COURONNES	"},"geometry":{	{"type": "Point", "coordinates": [-1.360605326861162, -5.981470107048636]}	},
{"type":"Feature","properties":{"stationName":	COUR SAINT-EMILION	"},"geometry":{	{"type": "Point", "coordinates": [-1.360574836303255, -5.982041896202984]}	},
{"type":"Feature","properties":{"stationName":	DENFERT-ROCHEREAU	"},"geometry":{	{"type": "Point", "coordinates": [-1.360943708190357, -5.982131046663571]}	},
{"type":"Feature","properties":{"stationName":	ECOLE MILITAIRE	"},"geometry":{	{"type": "Point", "coordinates": [-1.361195324370946, -5.981925290614035]}	},
{"type":"Feature","properties":{"stationName":	EGLISE D'AUTEUIL	"},"geometry":{	{"type": "Point", "coordinates": [-1.361492506114228, -5.982105774734266]}	},
{"type":"Feature","properties":{"stationName":	FAIDHERBE-CHALIGNY	"},"geometry":{	{"type": "Point", "coordinates": [-1.360638270573065, -5.981794804396823]}	},
{"type":"Feature","properties":{"stationName":	SAINT-LAZARE	"},"geometry":{	{"type": "Point", "coordinates": [-1.361260887119301, -5.98151056750772]}	},
{"type":"Feature","properties":{"stationName":	SÃˆVRES-LECOURBE	"},"geometry":{	{"type": "Point", "coordinates": [-1.361237667792542, -5.982068517351904]}	},
{"type":"Feature","properties":{"stationName":	INVALIDES	"},"geometry":{	{"type": "Point", "coordinates": [-1.361196733164486, -5.981831174909233]}	},
{"type":"Feature","properties":{"stationName":	LEDRU-ROLLIN	"},"geometry":{	{"type": "Point", "coordinates": [-1.360683395627953, -5.981776815788557]}	},
{"type":"Feature","properties":{"stationName":	MABILLON	"},"geometry":{	{"type": "Point", "coordinates": [-1.361042352316242, -5.981885545524979]}	},
{"type":"Feature","properties":{"stationName":	MONCEAU	"},"geometry":{	{"type": "Point", "coordinates": [-1.361438245686497, -5.98150131239379]}	},
{"type":"Feature","properties":{"stationName":	AVENUE EMILE ZOLA	"},"geometry":{	{"type": "Point", "coordinates": [-1.361298750551826, -5.982044792363648]}	},
{"type":"Feature","properties":{"stationName":	AVRON	"},"geometry":{	{"type": "Point", "coordinates": [-1.36057198539254, -5.981762385102187]}	},
{"type":"Feature","properties":{"stationName":	BEL-AIR	"},"geometry":{	{"type": "Point", "coordinates": [-1.360564169972114, -5.981907298581585]}	},
{"type":"Feature","properties":{"stationName":	BONNE NOUVELLE	"},"geometry":{	{"type": "Point", "coordinates": [-1.360958353275792, -5.981523863137339]}	},
{"type":"Feature","properties":{"stationName":	RUE DES BOULETS	"},"geometry":{	{"type": "Point", "coordinates": [-1.360623701570359, -5.981717867337558]}	},
{"type":"Feature","properties":{"stationName":	PONT CARDINET	"},"geometry":{	{"type": "Point", "coordinates": [-1.361466352949109, -5.981286386700812]}	},
{"type":"Feature","properties":{"stationName":	PONT DE NEUILLY	"},"geometry":{	{"type": "Point", "coordinates": [-1.361796450999947, -5.981495110891862]}	},
{"type":"Feature","properties":{"stationName":	LES AGNETTES	"},"geometry":{	{"type": "Point", "coordinates": [-1.361676738121, -5.980872934827712]}	},
{"type":"Feature","properties":{"stationName":	VILLEJUIF-LOUIS ARAGON	"},"geometry":{	{"type": "Point", "coordinates": [-1.360744262055984, -5.982627627584099]}	},
{"type":"Feature","properties":{"stationName":	MALAKOFF-PLATEAU DE VANVES	"},"geometry":{	{"type": "Point", "coordinates": [-1.36109793689087, -5.982344519382584]}	},
{"type":"Feature","properties":{"stationName":	ECOLE VÃ‰TÃ‰RINAIRE DE MAISONS-ALFORT	"},"geometry":{	{"type": "Point", "coordinates": [-1.360189861489636, -5.982352132655575]}	},
{"type":"Feature","properties":{"stationName":	MAISONS-ALFORT STADE	"},"geometry":{	{"type": "Point", "coordinates": [-1.360186185710945, -5.982418842676616]}	},
{"type":"Feature","properties":{"stationName":	LOUIS BLANC	"},"geometry":{	{"type": "Point", "coordinates": [-1.360794869922278, -5.981347935917517]}	},
{"type":"Feature","properties":{"stationName":	GARE D'AUSTERLITZ	"},"geometry":{	{"type": "Point", "coordinates": [-1.360783672525218, -5.981943382735591]}	},
{"type":"Feature","properties":{"stationName":	PASTEUR	"},"geometry":{	{"type": "Point", "coordinates": [-1.361204337495667, -5.982098398873689]}	},
{"type":"Feature","properties":{"stationName":	BIR HAKEIM	"},"geometry":{	{"type": "Point", "coordinates": [-1.361345887248299, -5.981971509791126]}	},
{"type":"Feature","properties":{"stationName":	DENFERT-ROCHEREAU	"},"geometry":{	{"type": "Point", "coordinates": [-1.360966270845793, -5.982141835433932]}	},
{"type":"Feature","properties":{"stationName":	PLACE D'ITALIE	"},"geometry":{	{"type": "Point", "coordinates": [-1.360766124939274, -5.982121238644204]}	},
{"type":"Feature","properties":{"stationName":	LES SABLONS	"},"geometry":{	{"type": "Point", "coordinates": [-1.361680397402405, -5.98153601033403]}	},
{"type":"Feature","properties":{"stationName":	MICHEL ANGE-AUTEUIL	"},"geometry":{	{"type": "Point", "coordinates": [-1.361531911645122, -5.98210840334405]}	},
{"type":"Feature","properties":{"stationName":	WAGRAM	"},"geometry":{	{"type": "Point", "coordinates": [-1.36146904373094, -5.981402473123913]}	},
{"type":"Feature","properties":{"stationName":	PORTE MAILLOT	"},"geometry":{	{"type": "Point", "coordinates": [-1.361600122566687, -5.98156430162991]}	},
{"type":"Feature","properties":{"stationName":	BELLEVILLE	"},"geometry":{	{"type": "Point", "coordinates": [-1.360656256827494, -5.981424465042096]}	},
{"type":"Feature","properties":{"stationName":	PORTE DORÃ‰E	"},"geometry":{	{"type": "Point", "coordinates": [-1.360456313542817, -5.981993471614189]}	},
{"type":"Feature","properties":{"stationName":	MICHEL ANGE-AUTEUIL	"},"geometry":{	{"type": "Point", "coordinates": [-1.361531911645122, -5.98210840334405]}	},
{"type":"Feature","properties":{"stationName":	MICHEL ANGE-MOLITOR	"},"geometry":{	{"type": "Point", "coordinates": [-1.361528712715998, -5.982167092769021]}	},
{"type":"Feature","properties":{"stationName":	CHAMPS-ELYSÃ‰ES-CLÃ‰MENCEAU	"},"geometry":{	{"type": "Point", "coordinates": [-1.361277158110557, -5.981721699792429]}	},
{"type":"Feature","properties":{"stationName":	PIGALLE	"},"geometry":{	{"type": "Point", "coordinates": [-1.36118070928098, -5.981319573191481]}	},
{"type":"Feature","properties":{"stationName":	VILLIERS	"},"geometry":{	{"type": "Point", "coordinates": [-1.361406590435385, -5.981458460320289]}	},
{"type":"Feature","properties":{"stationName":	JAURÃˆS	"},"geometry":{	{"type": "Point", "coordinates": [-1.360742267680817, -5.981347386927572]}	},
{"type":"Feature","properties":{"stationName":	OPÃ‰RA	"},"geometry":{	{"type": "Point", "coordinates": [-1.361140028576829, -5.981585107461671]}	},
{"type":"Feature","properties":{"stationName":	ODÃ‰ON	"},"geometry":{	{"type": "Point", "coordinates": [-1.360992797381047, -5.981871686834348]}	},
{"type":"Feature","properties":{"stationName":	LOUIS BLANC	"},"geometry":{	{"type": "Point", "coordinates": [-1.360789146281822, -5.981353125207982]}	},
{"type":"Feature","properties":{"stationName":	PLACE DE CLICHY	"},"geometry":{	{"type": "Point", "coordinates": [-1.361271138340587, -5.981324568455565]}	},
{"type":"Feature","properties":{"stationName":	SAINT-MICHEL	"},"geometry":{	{"type": "Point", "coordinates": [-1.360979832621094, -5.981828553140986]}	},
{"type":"Feature","properties":{"stationName":	CHÃ‚TELET	"},"geometry":{	{"type": "Point", "coordinates": [-1.360985967134813, -5.981717259555619]}	},
{"type":"Feature","properties":{"stationName":	MARCADET-POISSONNIERS	"},"geometry":{	{"type": "Point", "coordinates": [-1.361107835723201, -5.981234124230101]}	},
{"type":"Feature","properties":{"stationName":	SAINT-GEORGES	"},"geometry":{	{"type": "Point", "coordinates": [-1.361179316169252, -5.981344842142362]}	},
{"type":"Feature","properties":{"stationName":	LE PELLETIER	"},"geometry":{	{"type": "Point", "coordinates": [-1.361070075080526, -5.981453153798065]}	},
{"type":"Feature","properties":{"stationName":	MIROMESNIL	"},"geometry":{	{"type": "Point", "coordinates": [-1.361315697639164, -5.981564907341486]}	},
{"type":"Feature","properties":{"stationName":	CHAUSSÃ‰E D'ANTIN-LA FAYETTE	"},"geometry":{	{"type": "Point", "coordinates": [-1.361141508971568, -5.981533982336845]}	},
{"type":"Feature","properties":{"stationName":	OPÃ‰RA	"},"geometry":{	{"type": "Point", "coordinates": [-1.361140028576829, -5.981585107461671]}	},
{"type":"Feature","properties":{"stationName":	CRIMÃ‰E	"},"geometry":{	{"type": "Point", "coordinates": [-1.360711824210575, -5.981255082040891]}	},
{"type":"Feature","properties":{"stationName":	BOLIVAR	"},"geometry":{	{"type": "Point", "coordinates": [-1.360699700221325, -5.981321285510254]}	},
{"type":"Feature","properties":{"stationName":	JOURDAIN	"},"geometry":{	{"type": "Point", "coordinates": [-1.360601903963654, -5.98140376922053]}	},
{"type":"Feature","properties":{"stationName":	OBERKAMPF	"},"geometry":{	{"type": "Point", "coordinates": [-1.360758349547187, -5.981598559085386]}	},
{"type":"Feature","properties":{"stationName":	CHÃ‚TEAU D'EAU	"},"geometry":{	{"type": "Point", "coordinates": [-1.360893887994838, -5.981466504345318]}	},
{"type":"Feature","properties":{"stationName":	ODÃ‰ON	"},"geometry":{	{"type": "Point", "coordinates": [-1.36099299595418, -5.981864525216075]}	},
{"type":"Feature","properties":{"stationName":	PASTEUR	"},"geometry":{	{"type": "Point", "coordinates": [-1.361204337495667, -5.982098398873689]}	},
{"type":"Feature","properties":{"stationName":	CHEVALERET	"},"geometry":{	{"type": "Point", "coordinates": [-1.360691122338422, -5.982075416178106]}	},
{"type":"Feature","properties":{"stationName":	CONVENTION	"},"geometry":{	{"type": "Point", "coordinates": [-1.361236591532672, -5.982234978557785]}	},
{"type":"Feature","properties":{"stationName":	GARE D'AUSTERLITZ	"},"geometry":{	{"type": "Point", "coordinates": [-1.360776435299746, -5.98193421659156]}	},
{"type":"Feature","properties":{"stationName":	SENTIER	"},"geometry":{	{"type": "Point", "coordinates": [-1.360958474206817, -5.981575074230955]}	},
{"type":"Feature","properties":{"stationName":	TERNES	"},"geometry":{	{"type": "Point", "coordinates": [-1.361434241266436, -5.981573278533991]}	},
{"type":"Feature","properties":{"stationName":	VANEAU	"},"geometry":{	{"type": "Point", "coordinates": [-1.361112847616252, -5.981964316077304]}	},
{"type":"Feature","properties":{"stationName":	VAVIN	"},"geometry":{	{"type": "Point", "coordinates": [-1.36103374868746, -5.982102889454444]}	},
{"type":"Feature","properties":{"stationName":	INVALIDES	"},"geometry":{	{"type": "Point", "coordinates": [-1.361196733164486, -5.981831174909233]}	},
{"type":"Feature","properties":{"stationName":	JASMIN	"},"geometry":{	{"type": "Point", "coordinates": [-1.361533836815439, -5.982073067901788]}	},
{"type":"Feature","properties":{"stationName":	MONTGALLET	"},"geometry":{	{"type": "Point", "coordinates": [-1.360588936588332, -5.981913473015008]}	},
{"type":"Feature","properties":{"stationName":	MOUTON-DUVERNET	"},"geometry":{	{"type": "Point", "coordinates": [-1.360962620264897, -5.982168311312672]}	},
{"type":"Feature","properties":{"stationName":	ARGENTINE	"},"geometry":{	{"type": "Point", "coordinates": [-1.361503964629552, -5.981598191318026]}	},
{"type":"Feature","properties":{"stationName":	NATIONALE	"},"geometry":{	{"type": "Point", "coordinates": [-1.360720986148911, -5.982108808072763]}	},
{"type":"Feature","properties":{"stationName":	PERNETY	"},"geometry":{	{"type": "Point", "coordinates": [-1.361106436566505, -5.982190308377159]}	},
{"type":"Feature","properties":{"stationName":	PHILIPPE AUGUSTE	"},"geometry":{	{"type": "Point", "coordinates": [-1.360578948325307, -5.981636029057129]}	},
{"type":"Feature","properties":{"stationName":	PLACE MONGE	"},"geometry":{	{"type": "Point", "coordinates": [-1.360828874524515, -5.981988182012782]}	},
{"type":"Feature","properties":{"stationName":	RENNES	"},"geometry":{	{"type": "Point", "coordinates": [-1.361081242350201, -5.981991675708199]}	},
{"type":"Feature","properties":{"stationName":	RUE DE LA POMPE	"},"geometry":{	{"type": "Point", "coordinates": [-1.361519298518705, -5.98188202523566]}	},
{"type":"Feature","properties":{"stationName":	SAINT-FRANÃ‡OIS-XAVIER	"},"geometry":{	{"type": "Point", "coordinates": [-1.361185427732245, -5.98194819483956]}	},
{"type":"Feature","properties":{"stationName":	SAINT-JACQUES	"},"geometry":{	{"type": "Point", "coordinates": [-1.36090427942342, -5.982128866588394]}	},
{"type":"Feature","properties":{"stationName":	SAINT-MAUR	"},"geometry":{	{"type": "Point", "coordinates": [-1.360645145892351, -5.981570365844404]}	},
{"type":"Feature","properties":{"stationName":	CHARLES DE GAULLE ETOILE	"},"geometry":{	{"type": "Point", "coordinates": [-1.361430782178251, -5.981624481310456]}	},
{"type":"Feature","properties":{"stationName":	SAINT-SÃ‰BASTIEN-FROISSART	"},"geometry":{	{"type": "Point", "coordinates": [-1.360768365441177, -5.981675851683121]}	},
{"type":"Feature","properties":{"stationName":	SÃ‰GUR	"},"geometry":{	{"type": "Point", "coordinates": [-1.361199659248558, -5.982009992007601]}	},
{"type":"Feature","properties":{"stationName":	RICHELIEU-DROUOT	"},"geometry":{	{"type": "Point", "coordinates": [-1.361094606374174, -5.981531391139188]}	},
{"type":"Feature","properties":{"stationName":	RÃ‰PUBLIQUE	"},"geometry":{	{"type": "Point", "coordinates": [-1.360776244957569, -5.981532873972506]}	},
{"type":"Feature","properties":{"stationName":	ALMA-MARCEAU	"},"geometry":{	{"type": "Point", "coordinates": [-1.361334413847088, -5.981837744121664]}	},
{"type":"Feature","properties":{"stationName":	BIBLIOTHÃˆQUE FRANÃ‡OIS MITTERAND	"},"geometry":{	{"type": "Point", "coordinates": [-1.360601559364451, -5.982098768671019]}	},
{"type":"Feature","properties":{"stationName":	BOISSIÃˆRE	"},"geometry":{	{"type": "Point", "coordinates": [-1.361422429588667, -5.981788064794952]}	},
{"type":"Feature","properties":{"stationName":	BRÃ‰GUET-SABIN	"},"geometry":{	{"type": "Point", "coordinates": [-1.360752328472456, -5.9817077213088]}	},
{"type":"Feature","properties":{"stationName":	BUZENVAL	"},"geometry":{	{"type": "Point", "coordinates": [-1.36052681445059, -5.981788005962997]}	},
{"type":"Feature","properties":{"stationName":	PORTE DE CLICHY	"},"geometry":{	{"type": "Point", "coordinates": [-1.36147921918521, -5.98119334333068]}	},
{"type":"Feature","properties":{"stationName":	MAIRIE DE SAINT-OUEN	"},"geometry":{	{"type": "Point", "coordinates": [-1.361187805809536, -5.981055846474267]}	},
{"type":"Feature","properties":{"stationName":	MAIRIE DE CLICHY	"},"geometry":{	{"type": "Point", "coordinates": [-1.361628017445694, -5.981059954113477]}	},
{"type":"Feature","properties":{"stationName":	VILLEJUIF-LÃ‰O LAGRANGE	"},"geometry":{	{"type": "Point", "coordinates": [-1.360753308064105, -5.982463461477507]}	},
{"type":"Feature","properties":{"stationName":	CHÃ‚TILLON MONTROUGE	"},"geometry":{	{"type": "Point", "coordinates": [-1.361086016273749, -5.982560818871617]}	},
{"type":"Feature","properties":{"stationName":	CORENTIN CELTON	"},"geometry":{	{"type": "Point", "coordinates": [-1.361228637859143, -5.982381538888996]}	},
{"type":"Feature","properties":{"stationName":	PONT DE SÃˆVRES	"},"geometry":{	{"type": "Point", "coordinates": [-1.361763714608823, -5.982389441159488]}	},
{"type":"Feature","properties":{"stationName":	BOULOGNE-JEAN JAURÃˆS	"},"geometry":{	{"type": "Point", "coordinates": [-1.361675589042173, -5.982185038777815]}	},
{"type":"Feature","properties":{"stationName":	PORTE DAUPHINE	"},"geometry":{	{"type": "Point", "coordinates": [-1.361540541203196, -5.981727385449544]}	},
{"type":"Feature","properties":{"stationName":	MAIRIE DES LILAS	"},"geometry":{	{"type": "Point", "coordinates": [-1.360303020934218, -5.981387260370736]}	},
{"type":"Feature","properties":{"stationName":	CROIX DE CHAVAUX	"},"geometry":{	{"type": "Point", "coordinates": [-1.360268283017587, -5.981637246691409]}	},
{"type":"Feature","properties":{"stationName":	GEORGE V	"},"geometry":{	{"type": "Point", "coordinates": [-1.361377896915602, -5.981670229507676]}	},
{"type":"Feature","properties":{"stationName":	LIBERTÃ‰	"},"geometry":{	{"type": "Point", "coordinates": [-1.360346852161171, -5.982159532863753]}	},
{"type":"Feature","properties":{"stationName":	PORTE DE LA VILLETTE	"},"geometry":{	{"type": "Point", "coordinates": [-1.360616135335362, -5.981148098487179]}	},
{"type":"Feature","properties":{"stationName":	NATION	"},"geometry":{	{"type": "Point", "coordinates": [-1.360567183241568, -5.981852613902805]}	},
{"type":"Feature","properties":{"stationName":	ASNIÃˆRES-GENEVILLIERS - LES COURTILLES	"},"geometry":{	{"type": "Point", "coordinates": [-1.361679112498831, -5.980829873633555]}	},
{"type":"Feature","properties":{"stationName":	BOBIGNY-PABLO PICASSO	"},"geometry":{	{"type": "Point", "coordinates": [-1.360175198190381, -5.981010487604395]}	},
{"type":"Feature","properties":{"stationName":	PORTE DE CHOISY	"},"geometry":{	{"type": "Point", "coordinates": [-1.360677956098613, -5.982259015297765]}	},
{"type":"Feature","properties":{"stationName":	PLACE D'ITALIE	"},"geometry":{	{"type": "Point", "coordinates": [-1.360772815531951, -5.98212160666443]}	},
{"type":"Feature","properties":{"stationName":	HÃ”TEL DE VILLE	"},"geometry":{	{"type": "Point", "coordinates": [-1.360868757424277, -5.981699149128419]}	},
{"type":"Feature","properties":{"stationName":	BERCY	"},"geometry":{	{"type": "Point", "coordinates": [-1.360620540092875, -5.981996497593734]}	},
{"type":"Feature","properties":{"stationName":	MAISON BLANCHE	"},"geometry":{	{"type": "Point", "coordinates": [-1.360766087270697, -5.982231595938966]}	},
{"type":"Feature","properties":{"stationName":	PORTE D'AUTEUIL	"},"geometry":{	{"type": "Point", "coordinates": [-1.361567205711594, -5.982145463225148]}	},
{"type":"Feature","properties":{"stationName":	LA MUETTE	"},"geometry":{	{"type": "Point", "coordinates": [-1.361540092276128, -5.981958329697204]}	},
{"type":"Feature","properties":{"stationName":	MALESHERBES	"},"geometry":{	{"type": "Point", "coordinates": [-1.36144504272616, -5.981423988206837]}	},
{"type":"Feature","properties":{"stationName":	PYRAMIDES	"},"geometry":{	{"type": "Point", "coordinates": [-1.361129400560569, -5.98167017901604]}	},
{"type":"Feature","properties":{"stationName":	SÃˆVRES-BABYLONE	"},"geometry":{	{"type": "Point", "coordinates": [-1.36108449376724, -5.981932664190147]}	},
{"type":"Feature","properties":{"stationName":	LA MOTTE PICQUET-GRENELLE	"},"geometry":{	{"type": "Point", "coordinates": [-1.361275190970818, -5.982034885097159]}	},
{"type":"Feature","properties":{"stationName":	STRASBOURG-SAINT-DENIS	"},"geometry":{	{"type": "Point", "coordinates": [-1.360890538947522, -5.981527265892644]}	},
{"type":"Feature","properties":{"stationName":	RÃ‰PUBLIQUE	"},"geometry":{	{"type": "Point", "coordinates": [-1.360776244957569, -5.981532873972506]}	},
{"type":"Feature","properties":{"stationName":	RÃ‰PUBLIQUE	"},"geometry":{	{"type": "Point", "coordinates": [-1.360762016040894, -5.98153208796124]}	},
{"type":"Feature","properties":{"stationName":	STALINGRAD	"},"geometry":{	{"type": "Point", "coordinates": [-1.360775928541248, -5.981326756282709]}	},
{"type":"Feature","properties":{"stationName":	JAURÃˆS	"},"geometry":{	{"type": "Point", "coordinates": [-1.360744859074323, -5.981345065371081]}	},
{"type":"Feature","properties":{"stationName":	JUSSIEU	"},"geometry":{	{"type": "Point", "coordinates": [-1.360831554351252, -5.981939532493366]}	},
{"type":"Feature","properties":{"stationName":	REUILLY-DIDEROT	"},"geometry":{	{"type": "Point", "coordinates": [-1.360627481950897, -5.981843991216742]}	},
{"type":"Feature","properties":{"stationName":	BARBÃˆS-ROCHECHOUART	"},"geometry":{	{"type": "Point", "coordinates": [-1.361103361147324, -5.981315298652511]}	},
{"type":"Feature","properties":{"stationName":	GARE DU NORD	"},"geometry":{	{"type": "Point", "coordinates": [-1.360945209091732, -5.981358911886499]}	},
{"type":"Feature","properties":{"stationName":	TROCADÃ‰RO	"},"geometry":{	{"type": "Point", "coordinates": [-1.361418351050156, -5.981862076666983]}	},
{"type":"Feature","properties":{"stationName":	JUSSIEU	"},"geometry":{	{"type": "Point", "coordinates": [-1.360831554351252, -5.981939532493366]}	},
{"type":"Feature","properties":{"stationName":	PLACE DES FÃŠTES	"},"geometry":{	{"type": "Point", "coordinates": [-1.360550878064994, -5.98140095014057]}	},
{"type":"Feature","properties":{"stationName":	SÃˆVRES-BABYLONE	"},"geometry":{	{"type": "Point", "coordinates": [-1.36108449376724, -5.981932664190147]}	},
{"type":"Feature","properties":{"stationName":	LES HALLES	"},"geometry":{	{"type": "Point", "coordinates": [-1.360988781255654, -5.981666179757793]}	},
{"type":"Feature","properties":{"stationName":	FRANKLIN D. ROOSEVELT	"},"geometry":{	{"type": "Point", "coordinates": [-1.361341666211697, -5.9817015763788]}	},
{"type":"Feature","properties":{"stationName":	CHARLES DE GAULLE ETOILE	"},"geometry":{	{"type": "Point", "coordinates": [-1.361430847254038, -5.981635370833476]}	},
{"type":"Feature","properties":{"stationName":	CHÃ‚TELET	"},"geometry":{	{"type": "Point", "coordinates": [-1.360985819534229, -5.981719932541405]}	},
{"type":"Feature","properties":{"stationName":	PORTE DE CHAMPERRET	"},"geometry":{	{"type": "Point", "coordinates": [-1.361612125492813, -5.981390276223943]}	},
{"type":"Feature","properties":{"stationName":	BROCHANT	"},"geometry":{	{"type": "Point", "coordinates": [-1.361406231951958, -5.981258781743658]}	},
{"type":"Feature","properties":{"stationName":	CHÃ‚TEAU ROUGE	"},"geometry":{	{"type": "Point", "coordinates": [-1.361106167582352, -5.981264395782964]}	},
{"type":"Feature","properties":{"stationName":	BLANCHE	"},"geometry":{	{"type": "Point", "coordinates": [-1.361224002948898, -5.981321963149782]}	},
{"type":"Feature","properties":{"stationName":	TÃ‰LÃ‰GRAPHE	"},"geometry":{	{"type": "Point", "coordinates": [-1.360516402761711, -5.981399045930905]}	},
{"type":"Feature","properties":{"stationName":	ARTS ET MÃ‰TIERS	"},"geometry":{	{"type": "Point", "coordinates": [-1.36084313609812, -5.981565894424392]}	},
{"type":"Feature","properties":{"stationName":	JACQUES BONSERGENT	"},"geometry":{	{"type": "Point", "coordinates": [-1.360810809204179, -5.981466638499842]}	},
{"type":"Feature","properties":{"stationName":	CHÃ‚TELET	"},"geometry":{	{"type": "Point", "coordinates": [-1.360986594286839, -5.981705653812575]}	},
{"type":"Feature","properties":{"stationName":	LOUVRE-RIVOLI	"},"geometry":{	{"type": "Point", "coordinates": [-1.361039803124305, -5.981708592857752]}	},
{"type":"Feature","properties":{"stationName":	DUROC	"},"geometry":{	{"type": "Point", "coordinates": [-1.361182517313291, -5.981990823414032]}	},
{"type":"Feature","properties":{"stationName":	RASPAIL	"},"geometry":{	{"type": "Point", "coordinates": [-1.360998928548359, -5.982134097778557]}	},
{"type":"Feature","properties":{"stationName":	CHARONNE	"},"geometry":{	{"type": "Point", "coordinates": [-1.360652485038708, -5.981692062804588]}	},
{"type":"Feature","properties":{"stationName":	COURCELLES	"},"geometry":{	{"type": "Point", "coordinates": [-1.36143635867841, -5.981535523177553]}	},
{"type":"Feature","properties":{"stationName":	DUPLEIX	"},"geometry":{	{"type": "Point", "coordinates": [-1.361318864353871, -5.981995732281772]}	},
{"type":"Feature","properties":{"stationName":	FÃ‰LIX FAURE	"},"geometry":{	{"type": "Point", "coordinates": [-1.361319537457195, -5.982150828560853]}	},
{"type":"Feature","properties":{"stationName":	GAÃŽTÃ‰	"},"geometry":{	{"type": "Point", "coordinates": [-1.36110789284003, -5.982163888345638]}	},
{"type":"Feature","properties":{"stationName":	SOLFERINO	"},"geometry":{	{"type": "Point", "coordinates": [-1.361089204154529, -5.981847204402936]}	},
{"type":"Feature","properties":{"stationName":	PALAIS ROYAL-MUSÃ‰E DU LOUVRE	"},"geometry":{	{"type": "Point", "coordinates": [-1.361083891586117, -5.981711027111142]}	},
{"type":"Feature","properties":{"stationName":	VOLONTAIRES	"},"geometry":{	{"type": "Point", "coordinates": [-1.361241467348235, -5.982148739822619]}	},
{"type":"Feature","properties":{"stationName":	GONCOURT	"},"geometry":{	{"type": "Point", "coordinates": [-1.360703171184722, -5.981476924323086]}	},
{"type":"Feature","properties":{"stationName":	JAVEL	"},"geometry":{	{"type": "Point", "coordinates": [-1.361400057382375, -5.982100667422598]}	},
{"type":"Feature","properties":{"stationName":	MARAÃŽCHERS	"},"geometry":{	{"type": "Point", "coordinates": [-1.360487625328085, -5.981744188076576]}	},
{"type":"Feature","properties":{"stationName":	NOTRE-DAME DES CHAMPS	"},"geometry":{	{"type": "Point", "coordinates": [-1.361077872969416, -5.982052809699242]}	},
{"type":"Feature","properties":{"stationName":	PORTE DE VERSAILLES	"},"geometry":{	{"type": "Point", "coordinates": [-1.361234227644395, -5.982280088431051]}	},
{"type":"Feature","properties":{"stationName":	PORTE DES LILAS	"},"geometry":{	{"type": "Point", "coordinates": [-1.360486406033796, -5.981397389598557]}	},
{"type":"Feature","properties":{"stationName":	QUATRE SEPTEMBRE	"},"geometry":{	{"type": "Point", "coordinates": [-1.361102999108204, -5.981583058947569]}	},
{"type":"Feature","properties":{"stationName":	RUE DU BAC	"},"geometry":{	{"type": "Point", "coordinates": [-1.361086772935566, -5.981891321386226]}	},
{"type":"Feature","properties":{"stationName":	GRANDS BOULEVARDS	"},"geometry":{	{"type": "Point", "coordinates": [-1.361015993519977, -5.981534196069815]}	},
{"type":"Feature","properties":{"stationName":	SAINT-AMBROISE	"},"geometry":{	{"type": "Point", "coordinates": [-1.360711865761532, -5.981638828835206]}	},
{"type":"Feature","properties":{"stationName":	SAINT-FARGEAU	"},"geometry":{	{"type": "Point", "coordinates": [-1.360488436163906, -5.981471345343798]}	},
{"type":"Feature","properties":{"stationName":	SAINT-GERMAIN-DES-PRÃ‰S	"},"geometry":{	{"type": "Point", "coordinates": [-1.361028580547054, -5.981866537167933]}	},
{"type":"Feature","properties":{"stationName":	ASSEMBLÃ‰E NATIONALE	"},"geometry":{	{"type": "Point", "coordinates": [-1.361095295496619, -5.981818246025608]}	},
{"type":"Feature","properties":{"stationName":	BOUCICAUT	"},"geometry":{	{"type": "Point", "coordinates": [-1.361317395730696, -5.982189680310532]}	},
{"type":"Feature","properties":{"stationName":	CAMPO-FORMIO	"},"geometry":{	{"type": "Point", "coordinates": [-1.360768544865039, -5.982077385027202]}	},
{"type":"Feature","properties":{"stationName":	CENSIER-DAUBENTON	"},"geometry":{	{"type": "Point", "coordinates": [-1.36082657314057, -5.982029929589384]}	},
{"type":"Feature","properties":{"stationName":	CHARDON-LAGACHE	"},"geometry":{	{"type": "Point", "coordinates": [-1.361503160202659, -5.982138521042884]}	},
{"type":"Feature","properties":{"stationName":	CHARLES DE GAULLE ETOILE	"},"geometry":{	{"type": "Point", "coordinates": [-1.361432445111109, -5.981606547593069]}	},
{"type":"Feature","properties":{"stationName":	MAIRIE DE MONTROUGE	"},"geometry":{	{"type": "Point", "coordinates": [-1.360973126844567, -5.982363416537757]}	},
{"type":"Feature","properties":{"stationName":	MAIRIE D'IVRY	"},"geometry":{	{"type": "Point", "coordinates": [-1.360574703118765, -5.982396632925081]}	},
{"type":"Feature","properties":{"stationName":	LE KREMLIN-BICÃŠTRE	"},"geometry":{	{"type": "Point", "coordinates": [-1.360758289527984, -5.982373085935511]}	},
{"type":"Feature","properties":{"stationName":	PIERRE ET MARIE CURIE	"},"geometry":{	{"type": "Point", "coordinates": [-1.360578981524532, -5.982318986930991]}	},
{"type":"Feature","properties":{"stationName":	AUBERVILLIERS-PANTIN QUATRE CHEMINS	"},"geometry":{	{"type": "Point", "coordinates": [-1.360531636578059, -5.981053612313669]}	},
{"type":"Feature","properties":{"stationName":	EGLISE DE PANTIN	"},"geometry":{	{"type": "Point", "coordinates": [-1.360276894363486, -5.981251066260081]}	},
{"type":"Feature","properties":{"stationName":	BILLANCOURT	"},"geometry":{	{"type": "Point", "coordinates": [-1.361687266492975, -5.982385217786012]}	},
{"type":"Feature","properties":{"stationName":	MARCEL SEMBAT	"},"geometry":{	{"type": "Point", "coordinates": [-1.361603263250472, -5.982332262114631]}	},
{"type":"Feature","properties":{"stationName":	TUILERIES	"},"geometry":{	{"type": "Point", "coordinates": [-1.361142907196981, -5.981714284971393]}	},
{"type":"Feature","properties":{"stationName":	GALLIENI	"},"geometry":{	{"type": "Point", "coordinates": [-1.360391850046015, -5.981556577247333]}	},
{"type":"Feature","properties":{"stationName":	MAISONS-ALFORT-LES-JULLIOTTES	"},"geometry":{	{"type": "Point", "coordinates": [-1.360182530884184, -5.982485180143144]}	},
{"type":"Feature","properties":{"stationName":	OLYMPIADES	"},"geometry":{	{"type": "Point", "coordinates": [-1.360640669781631, -5.982142497021201]}	},
{"type":"Feature","properties":{"stationName":	CONCORDE	"},"geometry":{	{"type": "Point", "coordinates": [-1.361206761917682, -5.981717813023416]}	},
{"type":"Feature","properties":{"stationName":	PORTE DE LA CHAPELLE	"},"geometry":{	{"type": "Point", "coordinates": [-1.360958936856341, -5.981160817267191]}	},
{"type":"Feature","properties":{"stationName":	PORTE D'ORLÃ‰ANS	"},"geometry":{	{"type": "Point", "coordinates": [-1.360977348589954, -5.982265831202771]}	},
{"type":"Feature","properties":{"stationName":	PORTE D'ITALIE	"},"geometry":{	{"type": "Point", "coordinates": [-1.3607399100573, -5.982252639350237]}	},
{"type":"Feature","properties":{"stationName":	NATION	"},"geometry":{	{"type": "Point", "coordinates": [-1.360569433821621, -5.981808687068519]}	},
{"type":"Feature","properties":{"stationName":	SAINT-PAUL	"},"geometry":{	{"type": "Point", "coordinates": [-1.360838872219219, -5.981721628091912]}	},
{"type":"Feature","properties":{"stationName":	PORTE DE MONTREUIL	"},"geometry":{	{"type": "Point", "coordinates": [-1.36046117869012, -5.981713426555817]}	},
{"type":"Feature","properties":{"stationName":	DAUMESNIL	"},"geometry":{	{"type": "Point", "coordinates": [-1.360565337540633, -5.981934633346916]}	},
{"type":"Feature","properties":{"stationName":	PORTE DE SAINT-CLOUD	"},"geometry":{	{"type": "Point", "coordinates": [-1.361531823208344, -5.982252380777439]}	},
{"type":"Feature","properties":{"stationName":	CHAMPS-ELYSÃ‰ES-CLÃ‰MENCEAU	"},"geometry":{	{"type": "Point", "coordinates": [-1.361277158110557, -5.981721699792429]}	},
{"type":"Feature","properties":{"stationName":	LA MOTTE PICQUET-GRENELLE	"},"geometry":{	{"type": "Point", "coordinates": [-1.361283378143782, -5.982027544595241]}	},
{"type":"Feature","properties":{"stationName":	CHÃ‚TEAU LANDON	"},"geometry":{	{"type": "Point", "coordinates": [-1.360824177915761, -5.981400626467644]}	},
{"type":"Feature","properties":{"stationName":	RÃ‰AUMUR-SÃ‰BASTOPOL	"},"geometry":{	{"type": "Point", "coordinates": [-1.360888120073847, -5.981571188930392]}	},
{"type":"Feature","properties":{"stationName":	STRASBOURG-SAINT-DENIS	"},"geometry":{	{"type": "Point", "coordinates": [-1.360890932415532, -5.981520140190607]}	},
{"type":"Feature","properties":{"stationName":	EXELMANS	"},"geometry":{	{"type": "Point", "coordinates": [-1.361525706993979, -5.982222242391793]}	},
{"type":"Feature","properties":{"stationName":	SAINT-PHILIPPE DU ROULE	"},"geometry":{	{"type": "Point", "coordinates": [-1.361346293157396, -5.981600530299631]}	},
{"type":"Feature","properties":{"stationName":	STALINGRAD	"},"geometry":{	{"type": "Point", "coordinates": [-1.360773493016953, -5.981324034106819]}	},
{"type":"Feature","properties":{"stationName":	JAURÃˆS	"},"geometry":{	{"type": "Point", "coordinates": [-1.360747555883042, -5.981342648609495]}	},
{"type":"Feature","properties":{"stationName":	PONT NEUF	"},"geometry":{	{"type": "Point", "coordinates": [-1.361063505453368, -5.981724213838811]}	},
{"type":"Feature","properties":{"stationName":	SULLY-MORLAND	"},"geometry":{	{"type": "Point", "coordinates": [-1.360824573326408, -5.981823397642898]}	},
{"type":"Feature","properties":{"stationName":	CITÃ‰	"},"geometry":{	{"type": "Point", "coordinates": [-1.360982359810689, -5.981782697078626]}	},
{"type":"Feature","properties":{"stationName":	MONTPARNASSE	"},"geometry":{	{"type": "Point", "coordinates": [-1.361131218529172, -5.982141404187472]}	},
{"type":"Feature","properties":{"stationName":	BASTILLE	"},"geometry":{	{"type": "Point", "coordinates": [-1.360749021752418, -5.981767718233886]}	},
{"type":"Feature","properties":{"stationName":	DUROC	"},"geometry":{	{"type": "Point", "coordinates": [-1.361182517313291, -5.981990823414032]}	},
{"type":"Feature","properties":{"stationName":	BELLEVILLE	"},"geometry":{	{"type": "Point", "coordinates": [-1.360656256827494, -5.981424465042096]}	},
{"type":"Feature","properties":{"stationName":	PÃˆRE LACHAISE	"},"geometry":{	{"type": "Point", "coordinates": [-1.36058275654708, -5.981566919349004]}	},
{"type":"Feature","properties":{"stationName":	MARCADET-POISSONNIERS	"},"geometry":{	{"type": "Point", "coordinates": [-1.361107835723201, -5.981234124230101]}	},
{"type":"Feature","properties":{"stationName":	OPÃ‰RA	"},"geometry":{	{"type": "Point", "coordinates": [-1.361140028576829, -5.981585107461671]}	},
{"type":"Feature","properties":{"stationName":	PYRAMIDES	"},"geometry":{	{"type": "Point", "coordinates": [-1.361129400560569, -5.98167017901604]}	},
{"type":"Feature","properties":{"stationName":	HAVRE-CAUMARTIN	"},"geometry":{	{"type": "Point", "coordinates": [-1.361221935344364, -5.981538425396067]}	},
{"type":"Feature","properties":{"stationName":	CONCORDE	"},"geometry":{	{"type": "Point", "coordinates": [-1.361206761917682, -5.981717813023416]}	},
{"type":"Feature","properties":{"stationName":	PORTE DE VANVES	"},"geometry":{	{"type": "Point", "coordinates": [-1.361101893109159, -5.982272717236451]}	},
{"type":"Feature","properties":{"stationName":	HAVRE-CAUMARTIN	"},"geometry":{	{"type": "Point", "coordinates": [-1.361221935344364, -5.981538425396067]}	},
{"type":"Feature","properties":{"stationName":	GARE DE LYON	"},"geometry":{	{"type": "Point", "coordinates": [-1.360757650482457, -5.981873588080473]}	},
{"type":"Feature","properties":{"stationName":	CHÃ‚TELET	"},"geometry":{	{"type": "Point", "coordinates": [-1.360986214240868, -5.981712756980293]}	},
{"type":"Feature","properties":{"stationName":	PLACE DES FÃŠTES	"},"geometry":{	{"type": "Point", "coordinates": [-1.360551418612405, -5.98139317409338]}	},
{"type":"Feature","properties":{"stationName":	MONTPARNASSE	"},"geometry":{	{"type": "Point", "coordinates": [-1.361133110357737, -5.982099117759502]}	},
{"type":"Feature","properties":{"stationName":	GARE DE L'EST	"},"geometry":{	{"type": "Point", "coordinates": [-1.360888241305083, -5.981428015693868]}	},
{"type":"Feature","properties":{"stationName":	GARE DE L'EST	"},"geometry":{	{"type": "Point", "coordinates": [-1.360881259511184, -5.981427630401843]}	},
{"type":"Feature","properties":{"stationName":	BARBÃˆS-ROCHECHOUART	"},"geometry":{	{"type": "Point", "coordinates": [-1.361103361147324, -5.981315298652511]}	},
{"type":"Feature","properties":{"stationName":	LAMARCK-CAULAINCOURT	"},"geometry":{	{"type": "Point", "coordinates": [-1.361184225687988, -5.981255778095423]}	},
{"type":"Feature","properties":{"stationName":	ABBESSES	"},"geometry":{	{"type": "Point", "coordinates": [-1.361182559337222, -5.981286001951961]}	},
{"type":"Feature","properties":{"stationName":	PIGALLE	"},"geometry":{	{"type": "Point", "coordinates": [-1.36118070928098, -5.981319573191481]}	},
{"type":"Feature","properties":{"stationName":	GARE SAINT-LAZARE	"},"geometry":{	{"type": "Point", "coordinates": [-1.361247700793806, -5.981509838738714]}	},
{"type":"Feature","properties":{"stationName":	POISSONIÃˆRE	"},"geometry":{	{"type": "Point", "coordinates": [-1.36101466874672, -5.981434999717626]}	},
{"type":"Feature","properties":{"stationName":	CADET	"},"geometry":{	{"type": "Point", "coordinates": [-1.361055197161679, -5.981438086017358]}	},
{"type":"Feature","properties":{"stationName":	MIROMESNIL	"},"geometry":{	{"type": "Point", "coordinates": [-1.361308906032894, -5.981570815654948]}	},
{"type":"Feature","properties":{"stationName":	RIQUET	"},"geometry":{	{"type": "Point", "coordinates": [-1.360726774308534, -5.981271796347455]}	},
{"type":"Feature","properties":{"stationName":	PORTE DE PANTIN	"},"geometry":{	{"type": "Point", "coordinates": [-1.360491283689098, -5.981262868620614]}	},
{"type":"Feature","properties":{"stationName":	OURCQ	"},"geometry":{	{"type": "Point", "coordinates": [-1.360563401313516, -5.981266892347148]}	},
{"type":"Feature","properties":{"stationName":	LAUMIÃˆRE	"},"geometry":{	{"type": "Point", "coordinates": [-1.360632496685571, -5.98127070883594]}	},
{"type":"Feature","properties":{"stationName":	BUTTES CHAUMONT	"},"geometry":{	{"type": "Point", "coordinates": [-1.360648918211483, -5.981318483296241]}	},
{"type":"Feature","properties":{"stationName":	DANUBE	"},"geometry":{	{"type": "Point", "coordinates": [-1.360553447518023, -5.981313215819448]}	},
{"type":"Feature","properties":{"stationName":	PORTE DE BAGNOLET	"},"geometry":{	{"type": "Point", "coordinates": [-1.360469593858239, -5.981560675098576]}	},
{"type":"Feature","properties":{"stationName":	ARTS ET MÃ‰TIERS	"},"geometry":{	{"type": "Point", "coordinates": [-1.360848411820103, -5.981561133704854]}	},
{"type":"Feature","properties":{"stationName":	HÃ”TEL DE VILLE	"},"geometry":{	{"type": "Point", "coordinates": [-1.360868062319464, -5.981691964336752]}	},
{"type":"Feature","properties":{"stationName":	BASTILLE	"},"geometry":{	{"type": "Point", "coordinates": [-1.360749546526269, -5.981757648725139]}	},
{"type":"Feature","properties":{"stationName":	CLUNY-LA SORBONNE	"},"geometry":{	{"type": "Point", "coordinates": [-1.360939683188623, -5.981868753060418]}	},
{"type":"Feature","properties":{"stationName":	EDGAR QUINET	"},"geometry":{	{"type": "Point", "coordinates": [-1.361093509952549, -5.982139320758805]}	},
{"type":"Feature","properties":{"stationName":	FILLES DU CALVAIRE	"},"geometry":{	{"type": "Point", "coordinates": [-1.360772025960201, -5.981609419956086]}	},
{"type":"Feature","properties":{"stationName":	SAINT-LAZARE	"},"geometry":{	{"type": "Point", "coordinates": [-1.361267670997324, -5.981510964373542]}	},
{"type":"Feature","properties":{"stationName":	BASTILLE	"},"geometry":{	{"type": "Point", "coordinates": [-1.360749021752418, -5.981767718233886]}	},
{"type":"Feature","properties":{"stationName":	TEMPLE	"},"geometry":{	{"type": "Point", "coordinates": [-1.360829607415009, -5.981540109255848]}	},
{"type":"Feature","properties":{"stationName":	VOLTAIRE	"},"geometry":{	{"type": "Point", "coordinates": [-1.360683816002834, -5.981663973185224]}	},
{"type":"Feature","properties":{"stationName":	GARE DE LYON	"},"geometry":{	{"type": "Point", "coordinates": [-1.360716025210903, -5.98183196642796]}	},
{"type":"Feature","properties":{"stationName":	FRONT POPULAIRE	"},"geometry":{	{"type": "Point", "coordinates": [-1.360805847192593, -5.981049920332842]}	},
{"type":"Feature","properties":{"stationName":	IENA	"},"geometry":{	{"type": "Point", "coordinates": [-1.361377332034188, -5.98185980984911]}	},
{"type":"Feature","properties":{"stationName":	KLEBER	"},"geometry":{	{"type": "Point", "coordinates": [-1.361426502663159, -5.981714179506821]}	},
{"type":"Feature","properties":{"stationName":	LA TOUR MAUBOURG	"},"geometry":{	{"type": "Point", "coordinates": [-1.361198911496408, -5.981860194496742]}	},
{"type":"Feature","properties":{"stationName":	MIRABEAU	"},"geometry":{	{"type": "Point", "coordinates": [-1.361485087485798, -5.98211831376196]}	},
{"type":"Feature","properties":{"stationName":	PASSY	"},"geometry":{	{"type": "Point", "coordinates": [-1.361416347183827, -5.981898431212448]}	},
{"type":"Feature","properties":{"stationName":	PLAISANCE	"},"geometry":{	{"type": "Point", "coordinates": [-1.36110485812866, -5.982218933802776]}	},
{"type":"Feature","properties":{"stationName":	PORTE DE CLICHY	"},"geometry":{	{"type": "Point", "coordinates": [-1.361479223640061, -5.981193342015928]}	},
{"type":"Feature","properties":{"stationName":	QUAI DE LA GARE	"},"geometry":{	{"type": "Point", "coordinates": [-1.360651617095567, -5.982031244597057]}	},
{"type":"Feature","properties":{"stationName":	RANELAGH	"},"geometry":{	{"type": "Point", "coordinates": [-1.361535414803799, -5.98204413622467]}	},
{"type":"Feature","properties":{"stationName":	RICHARD LENOIR	"},"geometry":{	{"type": "Point", "coordinates": [-1.360754708303497, -5.981664552274566]}	},
{"type":"Feature","properties":{"stationName":	GRANDS BOULEVARDS	"},"geometry":{	{"type": "Point", "coordinates": [-1.361016439013828, -5.981527073248139]}	},
{"type":"Feature","properties":{"stationName":	SAINT-AUGUSTIN	"},"geometry":{	{"type": "Point", "coordinates": [-1.361295595726377, -5.981543609636689]}	},
{"type":"Feature","properties":{"stationName":	SAINT-PLACIDE	"},"geometry":{	{"type": "Point", "coordinates": [-1.361115902933164, -5.982003667970402]}	},
{"type":"Feature","properties":{"stationName":	RÃ‰PUBLIQUE	"},"geometry":{	{"type": "Point", "coordinates": [-1.360751932807291, -5.981531529880021]}	},
{"type":"Feature","properties":{"stationName":	ALEXANDRE DUMAS	"},"geometry":{	{"type": "Point", "coordinates": [-1.360575696218383, -5.981695039266396]}	},
{"type":"Feature","properties":{"stationName":	PORTE DE VINCENNES	"},"geometry":{	{"type": "Point", "coordinates": [-1.36045449699314, -5.981834464700497]}	},
{"type":"Feature","properties":{"stationName":	BONNE NOUVELLE	"},"geometry":{	{"type": "Point", "coordinates": [-1.360958113863117, -5.981530998891099]}	},
{"type":"Feature","properties":{"stationName":	BOURSE	"},"geometry":{	{"type": "Point", "coordinates": [-1.361030742915189, -5.981579067093056]}	},
{"type":"Feature","properties":{"stationName":	CAMBRONNE	"},"geometry":{	{"type": "Point", "coordinates": [-1.361258566322043, -5.982049781774838]}	},
{"type":"Feature","properties":{"stationName":	SAINT-OUEN	"},"geometry":{	{"type": "Point", "coordinates": [-1.361409631514452, -5.981068077396681]}	},
{"type":"Feature","properties":{"stationName":	NATION	"},"geometry":{	{"type": "Point", "coordinates": [-1.36056778936635, -5.981840705046399]}	},
{"type":"Feature","properties":{"stationName":	SAINT-DENIS-UNIVERSITÃ‰	"},"geometry":{	{"type": "Point", "coordinates": [-1.360768850925773, -5.980663520151179]}	},
{"type":"Feature","properties":{"stationName":	LOUISE MICHEL	"},"geometry":{	{"type": "Point", "coordinates": [-1.361699924148778, -5.981320439818207]}	},
{"type":"Feature","properties":{"stationName":	FORT D'AUBERVILLIERS	"},"geometry":{	{"type": "Point", "coordinates": [-1.360427438449791, -5.980937107238748]}	},
{"type":"Feature","properties":{"stationName":	BOBIGNY-PANTIN RAYMOND QUENEAU	"},"geometry":{	{"type": "Point", "coordinates": [-1.360221596862925, -5.98123065963031]}	},
{"type":"Feature","properties":{"stationName":	BOULOGNE-PONT DE SAINT-CLOUD	"},"geometry":{	{"type": "Point", "coordinates": [-1.36177549130336, -5.982190557898276]}	},
{"type":"Feature","properties":{"stationName":	GARIBALDI	"},"geometry":{	{"type": "Point", "coordinates": [-1.361237610989077, -5.981125801009889]}	},
{"type":"Feature","properties":{"stationName":	MAIRIE DE SAINT-OUEN	"},"geometry":{	{"type": "Point", "coordinates": [-1.361174406060977, -5.981055132974431]}	},
{"type":"Feature","properties":{"stationName":	SAINT-DENIS-PORTE DE PARIS	"},"geometry":{	{"type": "Point", "coordinates": [-1.3609642799454, -5.980889947166766]}	},
{"type":"Feature","properties":{"stationName":	MAIRIE DE MONTREUIL	"},"geometry":{	{"type": "Point", "coordinates": [-1.360230703722384, -5.981595251617604]}	},
{"type":"Feature","properties":{"stationName":	ROBESPIERRE	"},"geometry":{	{"type": "Point", "coordinates": [-1.360312754173801, -5.981687062687969]}	},
{"type":"Feature","properties":{"stationName":	REUILLY-DIDEROT	"},"geometry":{	{"type": "Point", "coordinates": [-1.360627481950897, -5.981843991216742]}	},
{"type":"Feature","properties":{"stationName":	CHÃ‚TEAU DE VINCENNES	"},"geometry":{	{"type": "Point", "coordinates": [-1.360229865087679, -5.981855838755095]}	},
{"type":"Feature","properties":{"stationName":	CRÃ‰TEIL-L'ECHAT	"},"geometry":{	{"type": "Point", "coordinates": [-1.36017882173147, -5.982552501658723]}	},
{"type":"Feature","properties":{"stationName":	CRÃ‰TEIL-UNIVERSITÃ‰	"},"geometry":{	{"type": "Point", "coordinates": [-1.360175129093141, -5.982619496507901]}	},
{"type":"Feature","properties":{"stationName":	NATION	"},"geometry":{	{"type": "Point", "coordinates": [-1.360569433821621, -5.981808687068519]}	},
{"type":"Feature","properties":{"stationName":	LA COURNEUVE 8 MAI 1945	"},"geometry":{	{"type": "Point", "coordinates": [-1.360322101853327, -5.98081913713519]}	},
{"type":"Feature","properties":{"stationName":	CHÃ‚TELET	"},"geometry":{	{"type": "Point", "coordinates": [-1.360985412860867, -5.981698524458269]}	},
{"type":"Feature","properties":{"stationName":	VILLIERS	"},"geometry":{	{"type": "Point", "coordinates": [-1.361406590435385, -5.981458460320289]}	},
{"type":"Feature","properties":{"stationName":	MADELEINE	"},"geometry":{	{"type": "Point", "coordinates": [-1.361238543543618, -5.981676207810185]}	},
{"type":"Feature","properties":{"stationName":	BOTZARIS	"},"geometry":{	{"type": "Point", "coordinates": [-1.360617585314929, -5.981316754487017]}	},
{"type":"Feature","properties":{"stationName":	PÃˆRE LACHAISE	"},"geometry":{	{"type": "Point", "coordinates": [-1.36058275654708, -5.981566919349004]}	},
{"type":"Feature","properties":{"stationName":	TOLBIAC	"},"geometry":{	{"type": "Point", "coordinates": [-1.360769297772161, -5.982173341865355]}	},
{"type":"Feature","properties":{"stationName":	MONTPARNASSE	"},"geometry":{	{"type": "Point", "coordinates": [-1.361134203435878, -5.982093426316208]}	},
{"type":"Feature","properties":{"stationName":	PALAIS ROYAL-MUSÃ‰E DU LOUVRE	"},"geometry":{	{"type": "Point", "coordinates": [-1.361083891586117, -5.981711027111142]}	},
{"type":"Feature","properties":{"stationName":	FRANKLIN D. ROOSEVELT	"},"geometry":{	{"type": "Point", "coordinates": [-1.361341666211697, -5.9817015763788]}	},
{"type":"Feature","properties":{"stationName":	CHAUSSÃ‰E D'ANTIN-LA FAYETTE	"},"geometry":{	{"type": "Point", "coordinates": [-1.361141508971568, -5.981533982336845]}	},
{"type":"Feature","properties":{"stationName":	GAMBETTA	"},"geometry":{	{"type": "Point", "coordinates": [-1.360522422481834, -5.981554679569649]}	},
{"type":"Feature","properties":{"stationName":	SAINT-LAZARE	"},"geometry":{	{"type": "Point", "coordinates": [-1.361254829510321, -5.981510232195949]}	},
{"type":"Feature","properties":{"stationName":	LA FOURCHE	"},"geometry":{	{"type": "Point", "coordinates": [-1.361273973946715, -5.981273109798718]}	},
{"type":"Feature","properties":{"stationName":	BÃ‰RAULT	"},"geometry":{	{"type": "Point", "coordinates": [-1.360276578937109, -5.981858437672479]}	},
{"type":"Feature","properties":{"stationName":	ROME	"},"geometry":{	{"type": "Point", "coordinates": [-1.361333178089346, -5.9813763601608]}	},
{"type":"Feature","properties":{"stationName":	GUY MOQUET	"},"geometry":{	{"type": "Point", "coordinates": [-1.361276575739097, -5.981225905850717]}	},
{"type":"Feature","properties":{"stationName":	PORTE DE SAINT-OUEN	"},"geometry":{	{"type": "Point", "coordinates": [-1.36127920319693, -5.981178294763182]}	},
{"type":"Feature","properties":{"stationName":	ANVERS	"},"geometry":{	{"type": "Point", "coordinates": [-1.361131524807899, -5.981316854518655]}	},
{"type":"Feature","properties":{"stationName":	MARX DORMOY	"},"geometry":{	{"type": "Point", "coordinates": [-1.360956039054585, -5.981223351095042]}	},
{"type":"Feature","properties":{"stationName":	JULES JOFFRIN	"},"geometry":{	{"type": "Point", "coordinates": [-1.361162962143968, -5.981237169653816]}	},
{"type":"Feature","properties":{"stationName":	CORENTIN CARIOU	"},"geometry":{	{"type": "Point", "coordinates": [-1.360693354788638, -5.98123443066951]}	},
{"type":"Feature","properties":{"stationName":	OBERKAMPF	"},"geometry":{	{"type": "Point", "coordinates": [-1.360758349547187, -5.981598559085386]}	},
{"type":"Feature","properties":{"stationName":	CHARLES MICHELS	"},"geometry":{	{"type": "Point", "coordinates": [-1.361321108260213, -5.982069843025734]}	},
{"type":"Feature","properties":{"stationName":	COMMERCE	"},"geometry":{	{"type": "Point", "coordinates": [-1.361321033602262, -5.982123687819891]}	},
{"type":"Feature","properties":{"stationName":	CORVISART	"},"geometry":{	{"type": "Point", "coordinates": [-1.360816431109032, -5.982124014211708]}	},
{"type":"Feature","properties":{"stationName":	DUGOMMIER	"},"geometry":{	{"type": "Point", "coordinates": [-1.360586115748875, -5.981958009530548]}	},
{"type":"Feature","properties":{"stationName":	ETIENNE MARCEL	"},"geometry":{	{"type": "Point", "coordinates": [-1.360956127039817, -5.981602463194999]}	},
{"type":"Feature","properties":{"stationName":	EUROPE	"},"geometry":{	{"type": "Point", "coordinates": [-1.361362708410792, -5.98149779936494]}	},
{"type":"Feature","properties":{"stationName":	FALGUIÃˆRE	"},"geometry":{	{"type": "Point", "coordinates": [-1.361166026224566, -5.982095181301804]}	},
{"type":"Feature","properties":{"stationName":	GLACIÃˆRE	"},"geometry":{	{"type": "Point", "coordinates": [-1.360852481384193, -5.982126004579063]}	},
{"type":"Feature","properties":{"stationName":	VARENNE	"},"geometry":{	{"type": "Point", "coordinates": [-1.361189292621322, -5.981878075525061]}	},
{"type":"Feature","properties":{"stationName":	VAUGIRARD	"},"geometry":{	{"type": "Point", "coordinates": [-1.361239969945026, -5.982175883152972]}	},
{"type":"Feature","properties":{"stationName":	VICTOR HUGO	"},"geometry":{	{"type": "Point", "coordinates": [-1.361491761664848, -5.981698989212674]}	},
{"type":"Feature","properties":{"stationName":	ALÃ‰SIA	"},"geometry":{	{"type": "Point", "coordinates": [-1.360960184935848, -5.982211124659396]}	},
{"type":"Feature","properties":{"stationName":	CRÃ‰TEIL-POINTE DU LAC	"},"geometry":{	{"type": "Point", "coordinates": [-1.360169328568026, -5.982724788714818]}	},
{"type":"Feature","properties":{"stationName":	LOURMEL	"},"geometry":{	{"type": "Point", "coordinates": [-1.361315873808991, -5.982217280943238]}	},
{"type":"Feature","properties":{"stationName":	SAINT-MANDÃ‰	"},"geometry":{	{"type": "Point", "coordinates": [-1.360327076813223, -5.98186122735026]}	},
{"type":"Feature","properties":{"stationName":	MADELEINE	"},"geometry":{	{"type": "Point", "coordinates": [-1.361231040110074, -5.981675793612669]}	},
{"type":"Feature","properties":{"stationName":	MAUBERT-MUTUALITÃ‰	"},"geometry":{	{"type": "Point", "coordinates": [-1.360891864404802, -5.981885468013195]}	},
{"type":"Feature","properties":{"stationName":	MÃ‰NILMONTANT	"},"geometry":{	{"type": "Point", "coordinates": [-1.360586261142388, -5.981503308749671]}	},
{"type":"Feature","properties":{"stationName":	PARMENTIER	"},"geometry":{	{"type": "Point", "coordinates": [-1.360714229695516, -5.981554426882658]}	},
{"type":"Feature","properties":{"stationName":	PELLEPORT	"},"geometry":{	{"type": "Point", "coordinates": [-1.360497278083519, -5.981524086109362]}	},
{"type":"Feature","properties":{"stationName":	PEREIRE-LEVALLOIS	"},"geometry":{	{"type": "Point", "coordinates": [-1.361567828113479, -5.981387828963891]}	},
{"type":"Feature","properties":{"stationName":	PICPUS	"},"geometry":{	{"type": "Point", "coordinates": [-1.36056553957333, -5.981882424302986]}	},
{"type":"Feature","properties":{"stationName":	QUAI DE LA RAPÃ‰E	"},"geometry":{	{"type": "Point", "coordinates": [-1.360780234528671, -5.981865272922688]}	},
{"type":"Feature","properties":{"stationName":	RAMBUTEAU	"},"geometry":{	{"type": "Point", "coordinates": [-1.360847635385356, -5.981650046743371]}	},
{"type":"Feature","properties":{"stationName":	SAINT-MARCEL	"},"geometry":{	{"type": "Point", "coordinates": [-1.360770238537937, -5.982046670420324]}	},
{"type":"Feature","properties":{"stationName":	SAINT-SULPICE	"},"geometry":{	{"type": "Point", "coordinates": [-1.361058919752105, -5.98193995321032]}	},
{"type":"Feature","properties":{"stationName":	MADELEINE	"},"geometry":{	{"type": "Point", "coordinates": [-1.361238543543618, -5.981676207810185]}	},
{"type":"Feature","properties":{"stationName":	RÃ‰PUBLIQUE	"},"geometry":{	{"type": "Point", "coordinates": [-1.360769125036052, -5.981532479901616]}	},
{"type":"Feature","properties":{"stationName":	RÃ‰AUMUR-SÃ‰BASTOPOL	"},"geometry":{	{"type": "Point", "coordinates": [-1.360888120073847, -5.981571188930392]}	},
{"type":"Feature","properties":{"stationName":	STRASBOURG-SAINT-DENIS	"},"geometry":{	{"type": "Point", "coordinates": [-1.360890932415532, -5.981520140190607]}	},
{"type":"Feature","properties":{"stationName":	CARDINAL LEMOINE	"},"geometry":{	{"type": "Point", "coordinates": [-1.360862531860572, -5.981911760534446]}	},
